<response><row><row _id="row-hsdb.yjss~tsgv" _uuid="00000000-0000-0000-EAA8-B0822B9E5874" _position="0" _address="https://data.baltimorecity.gov/resource/dz54-2aru/row-hsdb.yjss~tsgv"><address>GARRISON BLVD &amp; WABASH AVE</address><direction>E/B</direction><street>Garrison 
</street><crossstreet>Wabash Ave</crossstreet><intersection>Garrison 
 &amp; Wabash Ave</intersection><location_1 latitude="39.341209" longitude="-76.683117"/></row><row _id="row-7rjz.zuwk_8wwr" _uuid="00000000-0000-0000-34B9-D385DEFCED6D" _position="0" _address="https://data.baltimorecity.gov/resource/dz54-2aru/row-7rjz.zuwk_8wwr"><address>HILLEN ST &amp; FORREST ST</address><direction>W/B</direction><street>Hillen 
</street><crossstreet>Forrest St</crossstreet><intersection>Hillen 
 &amp; Forrest St</intersection><location_1 latitude="39.29686" longitude="-76.605532"/></row><row _id="row-s3sd.xrw2_smfd" _uuid="00000000-0000-0000-4059-3A2C3108C86F" _position="0" _address="https://data.baltimorecity.gov/resource/dz54-2aru/row-s3sd.xrw2_smfd"><address>EDMONDSON AVE &amp; N ATHOL AVE</address><direction>E/B</direction><street>Edmonson
</street><crossstreet>Woodbridge Ave</crossstreet><intersection>Edmonson
  &amp; Woodbridge Ave</intersection><location_1 latitude="39.293453" longitude="-76.689391"/></row><row _id="row-fjvi_mtqh.spfc" _uuid="00000000-0000-0000-B29F-D1808CAAEDCA" _position="0" _address="https://data.baltimorecity.gov/resource/dz54-2aru/row-fjvi_mtqh.spfc"><address>YORK RD &amp; GITTINGS AVE</address><direction>S/B</direction><street>York Rd 
</street><crossstreet>Gitting Ave</crossstreet><intersection>York Rd 
 &amp; Gitting Ave</intersection><location_1 latitude="39.370493" longitude="-76.609812"/></row><row _id="row-5d47_gp2g~nzfa" _uuid="00000000-0000-0000-DDFE-59AA78DECAD1" _position="0" _address="https://data.baltimorecity.gov/resource/dz54-2aru/row-5d47_gp2g~nzfa"><address>RUSSELL ST &amp; W HAMBURG ST</address><direction>S/B</direction><street>Russell
</street><crossstreet>Hamburg St</crossstreet><intersection>Russell
  &amp; Hamburg St</intersection><location_1 latitude="39.279819" longitude="-76.623911"/></row><row _id="row-7r85_3dwc.etmt" _uuid="00000000-0000-0000-A0BD-7ED13E5D800D" _position="0" _address="https://data.baltimorecity.gov/resource/dz54-2aru/row-7r85_3dwc.etmt"><address>S MARTIN LUTHER KING JR BLVD &amp; W PRATT ST</address><direction>S/B</direction><street>MLK Jr. Blvd 
</street><crossstreet>Pratt St</crossstreet><intersection>MLK Jr. Blvd 
 &amp; Pratt St</intersection><location_1 latitude="39.286027" longitude="-76.627846"/></row><row _id="row-g9au_uhug.hzyz" _uuid="00000000-0000-0000-5B09-276BCDAAB1CD" _position="0" _address="https://data.baltimorecity.gov/resource/dz54-2aru/row-g9au_uhug.hzyz"><address>ORLEANS ST &amp; N LINWOOD AVE</address><direction>E/B</direction><street>Orleans</street><crossstreet>Linwood Ave</crossstreet><intersection>Orleans   &amp; Linwood Ave</intersection><location_1 latitude="39.295866" longitude="-76.576427"/></row><row _id="row-3k7h_s3gg-d8fg" _uuid="00000000-0000-0000-02B6-5672AF5F57C6" _position="0" _address="https://data.baltimorecity.gov/resource/dz54-2aru/row-3k7h_s3gg-d8fg"><address>E NORTHERN PKWY &amp; SPRINGLAKE WAY</address><direction>W/B</direction><street>Northern Pkwy
</street><crossstreet>Springlake Way</crossstreet><intersection>Northern Pkwy
  &amp; Springlake Way</intersection><location_1 latitude="39.364311" longitude="-76.617699"/></row><row _id="row-rfju_3xew.ngxt" _uuid="00000000-0000-0000-540A-83EB9CA9423B" _position="0" _address="https://data.baltimorecity.gov/resource/dz54-2aru/row-rfju_3xew.ngxt"><address>W COLD SPRING LN &amp; ROLAND AVE</address><direction>E/B</direction><street>Cold Spring
</street><crossstreet>Roland Ave</crossstreet><intersection>Cold Spring
  &amp; Roland Ave</intersection><location_1 latitude="39.343906" longitude="-76.635426"/></row><row _id="row-rw3u~98c4_x2pb" _uuid="00000000-0000-0000-7A92-F5AE8280A41C" _position="0" _address="https://data.baltimorecity.gov/resource/dz54-2aru/row-rw3u~98c4_x2pb"><address>E NORTHERN PKWY &amp; YORK RD</address><direction>W/B</direction><street>Northern Pkwy
</street><crossstreet>York Road</crossstreet><intersection>Northern Pkwy
  &amp; York Road</intersection><location_1 latitude="39.365146" longitude="-76.609922"/></row><row _id="row-9x68.kv7v-rcuq" _uuid="00000000-0000-0000-3DA0-104F530C4FD8" _position="0" _address="https://data.baltimorecity.gov/resource/dz54-2aru/row-9x68.kv7v-rcuq"><address>N CHARLES ST &amp; E LAKE AVE</address><direction>S/B</direction><street>Charles</street><crossstreet>Lake Ave</crossstreet><intersection>Charles &amp; Lake Ave</intersection><location_1 latitude="39.369054" longitude="-76.625827"/></row><row _id="row-kjmy.f4ri-wrd9" _uuid="00000000-0000-0000-4223-C0BFA4E085B4" _position="0" _address="https://data.baltimorecity.gov/resource/dz54-2aru/row-kjmy.f4ri-wrd9"><address>W FAYETTE ST &amp; N LIBERTY ST</address><direction>W/B</direction><street>Fayette
</street><crossstreet>Liberty Heights Ave</crossstreet><intersection>Fayette
  &amp; Liberty Heights Ave</intersection><location_1 latitude="39.290504" longitude="-76.617661"/></row><row _id="row-r2z8_7awr.ecbd" _uuid="00000000-0000-0000-5109-1B63C1B8BFD8" _position="0" _address="https://data.baltimorecity.gov/resource/dz54-2aru/row-r2z8_7awr.ecbd"><address>W NORTHERN PKWY &amp; GREENSPRING AVE</address><direction>W/B</direction><street>Northern Pkwy</street><crossstreet>Greenspring Ave</crossstreet><intersection>Northern Pkwy  &amp; Greenspring Ave</intersection><location_1 latitude="39.355161" longitude="-76.660506"/></row><row _id="row-pcyg-w9ks-dn2h" _uuid="00000000-0000-0000-3FC4-671E16F6CCF7" _position="0" _address="https://data.baltimorecity.gov/resource/dz54-2aru/row-pcyg-w9ks-dn2h"><address>EDMONDSON AVE &amp; N ATHOL AVE</address><direction>W/B</direction><street>Edmonson 
</street><crossstreet>Woodbridge Ave</crossstreet><intersection>Edmonson 
 &amp; Woodbridge Ave</intersection><location_1 latitude="39.293593" longitude="-76.689399"/></row><row _id="row-wfrp.98aj~3jjs" _uuid="00000000-0000-0000-F48D-5D503AB913B2" _position="0" _address="https://data.baltimorecity.gov/resource/dz54-2aru/row-wfrp.98aj~3jjs"><address>MOUNT ROYAL TER &amp; W NORTH AVE</address><direction>S/B</direction><street>Mt Royal
</street><crossstreet>North</crossstreet><intersection>Mt Royal
 &amp; North</intersection><location_1 latitude="39.310871" longitude="-76.625126"/></row><row _id="row-rd39_ricf_h4fw" _uuid="00000000-0000-0000-F8EF-06F6F8598171" _position="0" _address="https://data.baltimorecity.gov/resource/dz54-2aru/row-rd39_ricf_h4fw"><address>E NORTHERN PKWY &amp; WAVERLY WAY</address><direction>W/B</direction><street>Northern Pkwy</street><crossstreet>Waverly St</crossstreet><intersection>Northern Pkwy  &amp; Waverly St</intersection><location_1 latitude="39.367052" longitude="-76.581074"/></row><row _id="row-hvmg~c3z8_cd9z" _uuid="00000000-0000-0000-B216-E5CEBCD1CCB3" _position="0" _address="https://data.baltimorecity.gov/resource/dz54-2aru/row-hvmg~c3z8_cd9z"><address>PULASKI HWY &amp; MORAVIA PARK DR</address><direction>W/B</direction><street>
Pulaski Hwy 
</street><crossstreet>Moravia Park Drive</crossstreet><intersection>
Pulaski Hwy 
 &amp; Moravia Park Drive</intersection><location_1 latitude="39.308644" longitude="-76.532366"/></row><row _id="row-hxik~n8fv-guzr" _uuid="00000000-0000-0000-AA87-13208713BD8E" _position="0" _address="https://data.baltimorecity.gov/resource/dz54-2aru/row-hxik~n8fv-guzr"><address>PULASKI HWY &amp; NORTH POINT RD</address><direction>E/B</direction><street>Pulaski 
</street><crossstreet>North Point Blvd</crossstreet><intersection>Pulaski 
 &amp; North Point Blvd</intersection><location_1 latitude="39.304328" longitude="-76.53958"/></row><row _id="row-7yrk-3nn9~a3ky" _uuid="00000000-0000-0000-2B5E-CBD7A5758868" _position="0" _address="https://data.baltimorecity.gov/resource/dz54-2aru/row-7yrk-3nn9~a3ky"><address>LOCH RAVEN BLVD &amp; WALKER AVE</address><direction>N/B</direction><street>Loch Raven
</street><crossstreet>Walker Ave</crossstreet><intersection>Loch Raven
  &amp; Walker Ave</intersection><location_1 latitude="39.37006" longitude="-76.58318"/></row><row _id="row-jafr~k5jk.w6ya" _uuid="00000000-0000-0000-D3AE-593005D33B88" _position="0" _address="https://data.baltimorecity.gov/resource/dz54-2aru/row-jafr~k5jk.w6ya"><address>TAMARIND RD &amp; W COLD SPRING LN</address><direction>E/B</direction><street>Tamarind
</street><crossstreet>Coldspring Lane</crossstreet><intersection>Tamarind
  &amp; Coldspring Lane</intersection><location_1 latitude="39.343899" longitude="-76.651941"/></row><row _id="row-kq55_qq83_vhaq" _uuid="00000000-0000-0000-C84A-C26FDB656945" _position="0" _address="https://data.baltimorecity.gov/resource/dz54-2aru/row-kq55_qq83_vhaq"><address>E LOMBARD ST &amp; S GAY ST</address><direction>W/B</direction><street>Lombard 
</street><crossstreet>Gay St</crossstreet><intersection>Lombard 
 &amp; Gay St</intersection><location_1 latitude="39.287766" longitude="-76.608748"/></row><row _id="row-qyhs-yce5-dphw" _uuid="00000000-0000-0000-F89A-D9A8DBE8AAA9" _position="0" _address="https://data.baltimorecity.gov/resource/dz54-2aru/row-qyhs-yce5-dphw"><address>LIGHT ST &amp; E PRATT ST</address><direction>S/B</direction><street>Light SB 
</street><crossstreet>Pratt St</crossstreet><intersection>Light SB 
 &amp; Pratt St</intersection><location_1 latitude="39.286542" longitude="-76.613549"/></row><row _id="row-9s5x_pita-akcr" _uuid="00000000-0000-0000-677C-72CB437B3E06" _position="0" _address="https://data.baltimorecity.gov/resource/dz54-2aru/row-9s5x_pita-akcr"><address>W MOUNT ROYAL AVE &amp; W NORTH AVE</address><direction>N/B</direction><street>Mt Royal
</street><crossstreet>North</crossstreet><intersection>Mt Royal
 &amp; North</intersection><location_1 latitude="39.310767" longitude="-76.62473"/></row><row _id="row-s8yn~f7bd~wsj2" _uuid="00000000-0000-0000-D929-DBDF37E63C03" _position="0" _address="https://data.baltimorecity.gov/resource/dz54-2aru/row-s8yn~f7bd~wsj2"><address>E PATAPSCO AVE &amp; 4TH ST</address><direction>W/B</direction><street>Patapsco  
</street><crossstreet>4th St</crossstreet><intersection>Patapsco  
 &amp; 4th St</intersection><location_1 latitude="39.237269" longitude="-76.605404"/></row><row _id="row-sspu_6f8q-dx6g" _uuid="00000000-0000-0000-3473-9538F350FBDA" _position="0" _address="https://data.baltimorecity.gov/resource/dz54-2aru/row-sspu_6f8q-dx6g"><address>FORT SMALLWOOD RD &amp; FORT ARMISTEAD RD</address><direction>S/B</direction><street>Ft Smallwood
</street><crossstreet>Fort Armstead</crossstreet><intersection>Ft Smallwood
  &amp; Fort Armstead</intersection><location_1 latitude="39.199913" longitude="-76.555977"/></row><row _id="row-tfk4~gfi9.7avf" _uuid="00000000-0000-0000-1BAD-22B0B3CEB0FF" _position="0" _address="https://data.baltimorecity.gov/resource/dz54-2aru/row-tfk4~gfi9.7avf"><address>LIBERTY HTS &amp; HILLSDALE RD</address><direction>W/B</direction><street>Liberty Hghts
</street><crossstreet>Hillsdale Ave</crossstreet><intersection>Liberty Hghts
  &amp; Hillsdale Ave</intersection><location_1 latitude="39.330445" longitude="-76.69451"/></row><row _id="row-8ych-a3ph-erkj" _uuid="00000000-0000-0000-B05F-A5E67CC32093" _position="0" _address="https://data.baltimorecity.gov/resource/dz54-2aru/row-8ych-a3ph-erkj"><address>LIBERTY HEIGHTS AVE &amp; N DUKELAND ST</address><direction>E/B</direction><street>Liberty Hghts
</street><crossstreet>Dukeland St</crossstreet><intersection>Liberty Hghts
  &amp; Dukeland St</intersection><location_1 latitude="39.322639" longitude="-76.666634"/></row><row _id="row-qaw4.yzmn-rv4h" _uuid="00000000-0000-0000-B80C-65982800C1A8" _position="0" _address="https://data.baltimorecity.gov/resource/dz54-2aru/row-qaw4.yzmn-rv4h"><address>GWYNNS FLS &amp; GARRISON BLVD</address><direction>W/B</direction><street>Gwynns Falls 
</street><crossstreet>Garrison Blvd</crossstreet><intersection>Gwynns Falls 
  &amp; Garrison Blvd</intersection><location_1 latitude="39.313579" longitude="-76.676225"/></row><row _id="row-ctwh.b6vc.xk2e" _uuid="00000000-0000-0000-78BD-ED45D047B4B5" _position="0" _address="https://data.baltimorecity.gov/resource/dz54-2aru/row-ctwh.b6vc.xk2e"><address>RUSSELL ST &amp; BAYARD ST</address><direction>S/B</direction><street>Russell 
</street><crossstreet>Bayard St</crossstreet><intersection>Russell 
 &amp; Bayard St</intersection><location_1 latitude="39.273468" longitude="-76.628739"/></row><row _id="row-k6a2~q3mc-wai8" _uuid="00000000-0000-0000-11D7-B375D67D86F3" _position="0" _address="https://data.baltimorecity.gov/resource/dz54-2aru/row-k6a2~q3mc-wai8"><address>N PRESIDENT ST &amp; E FAYETTE ST</address><direction>S/B</direction><street>President</street><crossstreet>Fayette St</crossstreet><intersection>President  &amp; Fayette St</intersection><location_1 latitude="39.290624" longitude="-76.606665"/></row><row _id="row-2h8h.b2x4_fkk6" _uuid="00000000-0000-0000-16A8-7C45D23B5FFE" _position="0" _address="https://data.baltimorecity.gov/resource/dz54-2aru/row-2h8h.b2x4_fkk6"><address>POTEE ST &amp; TALBOTT ST</address><direction>S/B</direction><street>Potee
</street><crossstreet>Talbot</crossstreet><intersection>Potee
  &amp; Talbot</intersection><location_1 latitude="39.236486" longitude="-76.612211"/></row><row _id="row-hrjh-i6gb_mbce" _uuid="00000000-0000-0000-29A9-CA7DEE3EDBB8" _position="0" _address="https://data.baltimorecity.gov/resource/dz54-2aru/row-hrjh-i6gb_mbce"><address>ERDMAN AVE &amp; N MACON ST</address><direction>W/B</direction><street>Erdman</street><crossstreet>Macon St</crossstreet><intersection>Erdman  &amp; Macon St</intersection><location_1 latitude="39.306967" longitude="-76.559312"/></row><row _id="row-s6jy.pjgk-nsi5" _uuid="00000000-0000-0000-46DC-31D56043899C" _position="0" _address="https://data.baltimorecity.gov/resource/dz54-2aru/row-s6jy.pjgk-nsi5"><address>PULASKI HWY &amp; E MONUMENT ST</address><direction>E/B</direction><street>Pulaski Hwy 
</street><crossstreet>Monument St</crossstreet><intersection>Pulaski Hwy 
  &amp; Monument St</intersection><location_1 latitude="39.299798" longitude="-76.554251"/></row><row _id="row-wm8n.cvt7~xz7e" _uuid="00000000-0000-0000-BC87-6DC7E6E4C30C" _position="0" _address="https://data.baltimorecity.gov/resource/dz54-2aru/row-wm8n.cvt7~xz7e"><address>PARK HEIGHTS AVE &amp; VIOLET AVE</address><direction>N/B</direction><street>Park Heights</street><crossstreet>Voilet Ave</crossstreet><intersection>Park Heights  &amp; Voilet Ave</intersection><location_1 latitude="39.330713" longitude="-76.65975"/></row><row _id="row-dv9n_sxv2_r2mk" _uuid="00000000-0000-0000-A4B5-2E136477963B" _position="0" _address="https://data.baltimorecity.gov/resource/dz54-2aru/row-dv9n_sxv2_r2mk"><address>HARFORD RD &amp; WALTHER AVE</address><direction>S/B</direction><street>Harford</street><crossstreet>Walther Ave</crossstreet><intersection>Harford  &amp; Walther Ave</intersection><location_1 latitude="39.335308" longitude="-76.575185"/></row><row _id="row-g9b6-2w53_yjhd" _uuid="00000000-0000-0000-D8A5-58E4E6F5EA0D" _position="0" _address="https://data.baltimorecity.gov/resource/dz54-2aru/row-g9b6-2w53_yjhd"><address>EDMONDSON AVE &amp; N HILTON ST</address><direction>E/B</direction><street>Edmonson</street><crossstreet>Hilton St</crossstreet><intersection>Edmonson  &amp; Hilton St</intersection><location_1 latitude="39.294061" longitude="-76.67276"/></row><row _id="row-jun7~4hch-j25i" _uuid="00000000-0000-0000-8365-09F2E335CB70" _position="0" _address="https://data.baltimorecity.gov/resource/dz54-2aru/row-jun7~4hch-j25i"><address>W FRANKLIN ST &amp; N FRANKLINTOWN RD</address><direction>E/B</direction><street>Franklin 
</street><crossstreet>Franklintown Road</crossstreet><intersection>Franklin 
  &amp; Franklintown Road</intersection><location_1 latitude="39.293086" longitude="-76.662362"/></row><row _id="row-yv3f~z2ar~7z73" _uuid="00000000-0000-0000-14BC-0E4A148D19AA" _position="0" _address="https://data.baltimorecity.gov/resource/dz54-2aru/row-yv3f~z2ar~7z73"><address>S MARTIN LUTHER KING JR BLVD &amp; WASHINGTON BLVD</address><direction>N/B</direction><street>MLK Jr. Blvd.</street><crossstreet>Washington Blvd</crossstreet><intersection>MLK Jr. Blvd.  &amp; Washington Blvd</intersection><location_1 latitude="39.28346" longitude="-76.626114"/></row><row _id="row-e6ne-t384.4r86" _uuid="00000000-0000-0000-44B2-1463133CC28B" _position="0" _address="https://data.baltimorecity.gov/resource/dz54-2aru/row-e6ne-t384.4r86"><address>WALTHER AVE &amp; GLENMORE AVE</address><direction>N/B</direction><street>Walther 
</street><crossstreet>Glenmore</crossstreet><intersection>Walther 
 &amp; Glenmore</intersection><location_1 latitude="39.35354" longitude="-76.542494"/></row><row _id="row-8isz-rs8x_kdf2" _uuid="00000000-0000-0000-1E05-0A2545802E93" _position="0" _address="https://data.baltimorecity.gov/resource/dz54-2aru/row-8isz-rs8x_kdf2"><address>HILLEN RD &amp; ARGONNE DR</address><direction>S/B</direction><street>Hillen Rd</street><crossstreet>Argonne Drive</crossstreet><intersection>Hillen Rd  &amp; Argonne Drive</intersection><location_1 latitude="39.339991" longitude="-76.588021"/></row><row _id="row-3m6u.fsgm_yrje" _uuid="00000000-0000-0000-1707-E0FE62B338F0" _position="0" _address="https://data.baltimorecity.gov/resource/dz54-2aru/row-3m6u.fsgm_yrje"><address>HARFORD RD &amp; E NORTH AVE</address><direction>N/B</direction><street>Harford Rd
</street><crossstreet>North Ave</crossstreet><intersection>Harford Rd
  &amp; North Ave</intersection><location_1 latitude="39.311936" longitude="-76.599358"/></row><row _id="row-zvfv~5i2f_2vzv" _uuid="00000000-0000-0000-0129-2F4081DAE3B6" _position="0" _address="https://data.baltimorecity.gov/resource/dz54-2aru/row-zvfv~5i2f_2vzv"><address>E COLD SPRING LN &amp; LOCH RAVEN BLVD</address><direction>W/B</direction><street>Cold Spring
</street><crossstreet>Loch Raven Blvd</crossstreet><intersection>Cold Spring
  &amp; Loch Raven Blvd</intersection><location_1 latitude="39.346045" longitude="-76.592008"/></row><row _id="row-rv96_6grp-n4gp" _uuid="00000000-0000-0000-E75F-8FA584231D99" _position="0" _address="https://data.baltimorecity.gov/resource/dz54-2aru/row-rv96_6grp-n4gp"><address>FREDERICK AVE &amp; S CATHERINE ST</address><direction>E/B</direction><street>Fredrick Ave
</street><crossstreet>Catherine Ave</crossstreet><intersection>Fredrick Ave
 &amp; Catherine Ave</intersection><location_1 latitude="39.283394" longitude="-76.655929"/></row><row _id="row-n449-yarr_cuy6" _uuid="00000000-0000-0000-0878-D577BCEAD9BB" _position="0" _address="https://data.baltimorecity.gov/resource/dz54-2aru/row-n449-yarr_cuy6"><address>PARK HEIGHTS AVE &amp; HAYWARD AVE</address><direction>S/B</direction><street>Park Heights</street><crossstreet>Hayward Ave</crossstreet><intersection>Park Heights   &amp; Hayward Ave</intersection><location_1 latitude="39.34992" longitude="-76.678871"/></row><row _id="row-sp4y_fvjf.cr2i" _uuid="00000000-0000-0000-A598-CA47BD06E520" _position="0" _address="https://data.baltimorecity.gov/resource/dz54-2aru/row-sp4y_fvjf.cr2i"><address>REISTERSTOWN RD &amp; FALLSTAFF RD</address><direction>S/B</direction><street>Reisterstown</street><crossstreet>Fallstaff Road</crossstreet><intersection>Reisterstown   &amp; Fallstaff Road</intersection><location_1 latitude="39.362135" longitude="-76.710243"/></row><row _id="row-kafc~h88u.79zb" _uuid="00000000-0000-0000-42DC-872A69FE53F8" _position="0" _address="https://data.baltimorecity.gov/resource/dz54-2aru/row-kafc~h88u.79zb"><address>S HANOVER ST &amp; E CROMWELL ST</address><direction>S/B</direction><street>Hanover 
</street><crossstreet>Cromwell St</crossstreet><intersection> &amp;</intersection><location_1 latitude="39.26206" longitude="-76.614587"/></row><row _id="row-ih6v-uz24_j2e2" _uuid="00000000-0000-0000-C4E6-0F0C4D146903" _position="0" _address="https://data.baltimorecity.gov/resource/dz54-2aru/row-ih6v-uz24_j2e2"><address>EDMONDSON AVE &amp; COOKS LN</address><direction>E/B</direction><street>Edmonson</street><crossstreet>Cooks Lane</crossstreet><intersection>Edmonson  &amp; Cooks Lane</intersection><location_1 latitude="39.292368" longitude="-76.701706"/></row><row _id="row-9yrm.57uz_xm3d" _uuid="00000000-0000-0000-C65D-CD802B0B2890" _position="0" _address="https://data.baltimorecity.gov/resource/dz54-2aru/row-9yrm.57uz_xm3d"><address>PARK HEIGHTS AVE &amp; HAYWARD AVE</address><direction>N/B</direction><street>Park Heights</street><crossstreet>Hayward Ave</crossstreet><intersection>Park Heights   &amp; Hayward Ave</intersection><location_1 latitude="39.34992" longitude="-76.678871"/></row><row _id="row-nsxr.fsfg.62fs" _uuid="00000000-0000-0000-8915-B96A69C3D66B" _position="0" _address="https://data.baltimorecity.gov/resource/dz54-2aru/row-nsxr.fsfg.62fs"><address>SINCLAIR LN &amp; SHANNON DR</address><direction>W/B</direction><street>Sinclair 
</street><crossstreet>Shannon Drive</crossstreet><intersection>Sinclair 
 &amp; Shannon Drive</intersection><location_1 latitude="39.317503" longitude="-76.555674"/></row><row _id="row-45p6~sced-7cev" _uuid="00000000-0000-0000-BC82-5425A77BAA1C" _position="0" _address="https://data.baltimorecity.gov/resource/dz54-2aru/row-45p6~sced-7cev"><address>LIBERTY HTS &amp; HILLSDALE RD</address><direction>E/B</direction><street>Liberty Hghts
</street><crossstreet>Hillsdale Ave</crossstreet><intersection>Liberty Hghts
  &amp; Hillsdale Ave</intersection><location_1 latitude="39.330445" longitude="-76.69451"/></row><row _id="row-fhgz.qea9-3ubk" _uuid="00000000-0000-0000-67E2-CC9DE0FB7EAF" _position="0" _address="https://data.baltimorecity.gov/resource/dz54-2aru/row-fhgz.qea9-3ubk"><address>W FRANKLIN ST &amp; N PULASKI ST</address><direction>W/B</direction><street>Franklin</street><crossstreet>Pulaski St</crossstreet><intersection>Franklin  &amp; Pulaski St</intersection><location_1 latitude="39.293708" longitude="-76.650384"/></row><row _id="row-si48~bx7a.t9qm" _uuid="00000000-0000-0000-DDA2-AE93B26A209C" _position="0" _address="https://data.baltimorecity.gov/resource/dz54-2aru/row-si48~bx7a.t9qm"><address>REISTERSTOWN RD &amp; PATTERSON AVE</address><direction>E/B</direction><street>Reistertown 
</street><crossstreet>Patterson Ave</crossstreet><intersection>Reistertown 
  &amp; Patterson Ave</intersection><location_1 latitude="39.356182" longitude="-76.702521"/></row><row _id="row-h6tk.fj56_kbju" _uuid="00000000-0000-0000-B6D5-6AB153CA7DEA" _position="0" _address="https://data.baltimorecity.gov/resource/dz54-2aru/row-h6tk.fj56_kbju"><address>W FRANKLIN ST &amp; CATHEDRAL ST</address><direction>W/B</direction><street>Franklin 
</street><crossstreet>Cathedral</crossstreet><intersection>Franklin 
 &amp; Cathedral</intersection><location_1 latitude="39.295066" longitude="-76.616872"/></row><row _id="row-7umj~2t63-dnib" _uuid="00000000-0000-0000-5C9E-C49098B2353D" _position="0" _address="https://data.baltimorecity.gov/resource/dz54-2aru/row-7umj~2t63-dnib"><address>SINCLAIR LN &amp; MORAVIA RD</address><direction>W/B</direction><street>Sinclair</street><crossstreet>Moravia Road</crossstreet><intersection>Sinclair  &amp; Moravia Road</intersection><location_1 latitude="39.322036" longitude="-76.548453"/></row><row _id="row-gcrp~mdn4-pzv9" _uuid="00000000-0000-0000-D701-E624A39F5647" _position="0" _address="https://data.baltimorecity.gov/resource/dz54-2aru/row-gcrp~mdn4-pzv9"><address>HARFORD RD &amp; ROSALIE AVE</address><direction>N/B</direction><street>Harford
</street><crossstreet>Rosalie Ave</crossstreet><intersection>Harford
  &amp; Rosalie Ave</intersection><location_1 latitude="39.368065" longitude="-76.547818"/></row><row _id="row-e563~bfgb-m3w3" _uuid="00000000-0000-0000-8576-C79344CD4DDE" _position="0" _address="https://data.baltimorecity.gov/resource/dz54-2aru/row-e563~bfgb-m3w3"><address>ORLEANS ST &amp; N GAY ST</address><direction>E/B</direction><street>Orleans</street><crossstreet>Gay St</crossstreet><intersection>Orleans  &amp; Gay St</intersection><location_1 latitude="39.29472" longitude="-76.606128"/></row><row _id="row-93f6~2xev-yiaz" _uuid="00000000-0000-0000-B976-1EF677ABC86D" _position="0" _address="https://data.baltimorecity.gov/resource/dz54-2aru/row-93f6~2xev-yiaz"><address>SINCLAIR LN &amp; SHANNON DR</address><direction>E/B</direction><street>Sinclair
</street><crossstreet>Shannon Drive</crossstreet><intersection>Sinclair
  &amp; Shannon Drive</intersection><location_1 latitude="39.317503" longitude="-76.555674"/></row><row _id="row-dyh6~7vvk.825w" _uuid="00000000-0000-0000-54F0-D9AFFAA1FDA9" _position="0" _address="https://data.baltimorecity.gov/resource/dz54-2aru/row-dyh6~7vvk.825w"><address>WABASH AVE &amp; W BELVEDERE AVE</address><direction>E/B</direction><street>Wabash 
</street><crossstreet>Belvedere Ave</crossstreet><intersection>Wabash 
 &amp; Belvedere Ave</intersection><location_1 latitude="39.341671" longitude="-76.685043"/></row><row _id="row-ygu3-ufn2.7yhs" _uuid="00000000-0000-0000-B9E0-AADF5C8F2C9A" _position="0" _address="https://data.baltimorecity.gov/resource/dz54-2aru/row-ygu3-ufn2.7yhs"><address>HARFORD RD &amp; CHRISTOPHER AVE</address><direction>N/B</direction><street>Harford 
</street><crossstreet>Christopher Ave</crossstreet><intersection>Harford 
 &amp; Christopher Ave</intersection><location_1 latitude="39.358333" longitude="-76.556247"/></row><row _id="row-5kd5.gpqy-fhrg" _uuid="00000000-0000-0000-6605-37920E736C8C" _position="0" _address="https://data.baltimorecity.gov/resource/dz54-2aru/row-5kd5.gpqy-fhrg"><address>S HANOVER &amp; REEDBIRD AVE</address><direction>N/B</direction><street>Hanover 
</street><crossstreet>Reedbird Ave</crossstreet><intersection>Hanover 
 &amp; Reedbird Ave</intersection><location_1 latitude="39.24988" longitude="-76.613749"/></row><row _id="row-yb8t~jkzc.xvdw" _uuid="00000000-0000-0000-B1C8-5BFFD1755A78" _position="0" _address="https://data.baltimorecity.gov/resource/dz54-2aru/row-yb8t~jkzc.xvdw"><address>S CATON AVE &amp; BENSON AVE</address><direction>S/B</direction><street>Caton Ave</street><crossstreet>Benson Ave</crossstreet><intersection>Caton Ave &amp; Benson Ave</intersection><location_1 latitude="39.269316" longitude="-76.66897"/></row><row _id="row-wmrt.ybev.si24" _uuid="00000000-0000-0000-D890-543DB28CCA2C" _position="0" _address="https://data.baltimorecity.gov/resource/dz54-2aru/row-wmrt.ybev.si24"><address>E COLD SPRING LN &amp; HILLEN RD</address><direction>W/B</direction><street>Cold Spring</street><crossstreet>Hillen Road</crossstreet><intersection>Cold Spring  &amp; Hillen Road</intersection><location_1 latitude="39.345907" longitude="-76.585927"/></row><row _id="row-bszd_zzbf~4dii" _uuid="00000000-0000-0000-32FD-4FC290DD130F" _position="0" _address="https://data.baltimorecity.gov/resource/dz54-2aru/row-bszd_zzbf~4dii"><address>RUSSELL ST &amp; W HAMBURG ST</address><direction>N/B</direction><street>Russell 
</street><crossstreet>Hamburg St</crossstreet><intersection>Russell 
 &amp; Hamburg St</intersection><location_1 latitude="39.279786" longitude="-76.623754"/></row><row _id="row-8atr.mshe.iaiz" _uuid="00000000-0000-0000-99BB-CFCDB279DDA2" _position="0" _address="https://data.baltimorecity.gov/resource/dz54-2aru/row-8atr.mshe.iaiz"><address>EASTERN AVE &amp; KANE ST</address><direction>E/B</direction><street>Eastern</street><crossstreet>Kane St</crossstreet><intersection>Eastern  &amp; Kane St</intersection><location_1 latitude="39.287763" longitude="-76.537102"/></row><row _id="row-s4w8_t4qe.uqts" _uuid="00000000-0000-0000-F990-0152694BE54B" _position="0" _address="https://data.baltimorecity.gov/resource/dz54-2aru/row-s4w8_t4qe.uqts"><address>E 33RD ST &amp; THE ALAMEDA</address><direction>E/B</direction><street>E 33rd</street><crossstreet>The Alameda</crossstreet><intersection>E 33rd  &amp; The Alameda</intersection><location_1 latitude="39.328341" longitude="-76.595359"/></row><row _id="row-icas_2pip-whix" _uuid="00000000-0000-0000-3C46-AFE0747C1DC8" _position="0" _address="https://data.baltimorecity.gov/resource/dz54-2aru/row-icas_2pip-whix"><address>W NORTH AVE &amp; N HOWARD ST</address><direction>W/B</direction><street>North Ave</street><crossstreet>Howard St</crossstreet><intersection>North Ave  &amp; Howard St</intersection><location_1 latitude="39.311087" longitude="-76.619307"/></row><row _id="row-5e4p~64vt-6b5r" _uuid="00000000-0000-0000-767D-6D6609005B8F" _position="0" _address="https://data.baltimorecity.gov/resource/dz54-2aru/row-5e4p~64vt-6b5r"><address>REISTERSTOWN RD &amp; DRUID PARK DR</address><direction>S/B</direction><street>Reistertown Rd
</street><crossstreet>Druid Lake Drive</crossstreet><intersection>Reistertown Rd
  &amp; Druid Lake Drive</intersection><location_1 latitude="39.325287" longitude="-76.657711"/></row><row _id="row-ccid_rzb3_d66k" _uuid="00000000-0000-0000-6ABD-92A8BABF5DE6" _position="0" _address="https://data.baltimorecity.gov/resource/dz54-2aru/row-ccid_rzb3_d66k"><address>GWYNNS FLS &amp; GARRISON BLVD</address><direction>E/B</direction><street>Gwynns Falls 
</street><crossstreet>Garrison Blvd</crossstreet><intersection>Gwynns Falls 
  &amp; Garrison Blvd</intersection><location_1 latitude="39.313579" longitude="-76.676225"/></row><row _id="row-7rpd-y6fi_j3qy" _uuid="00000000-0000-0000-BB0F-8825B462F3A8" _position="0" _address="https://data.baltimorecity.gov/resource/dz54-2aru/row-7rpd-y6fi_j3qy"><address>THE ALAMEDA &amp; E 33RD ST</address><direction>S/B</direction><street>The Alameda</street><crossstreet>33rd St</crossstreet><intersection>The Alameda  &amp; 33rd St</intersection><location_1 latitude="39.328501" longitude="-76.595355"/></row><row _id="row-yx8y.jq58.pm96" _uuid="00000000-0000-0000-B140-6829A94470A9" _position="0" _address="https://data.baltimorecity.gov/resource/dz54-2aru/row-yx8y.jq58.pm96"><address>E MADISON ST &amp; N CAROLINE ST</address><direction>W/B</direction><street>Madison</street><crossstreet>Caroline St</crossstreet><intersection>Madison  &amp; Caroline St</intersection><location_1 latitude="39.299326" longitude="-76.597676"/></row><row _id="row-88qb~ukq2.pvg6" _uuid="00000000-0000-0000-A3B6-088B960859EE" _position="0" _address="https://data.baltimorecity.gov/resource/dz54-2aru/row-88qb~ukq2.pvg6"><address>W NORTHERN PKWY &amp; GREENSPRING AVE</address><direction>E/B</direction><street>Northern Pkwy</street><crossstreet>Greenspring Ave</crossstreet><intersection>Northern Pkwy   &amp; Greenspring Ave</intersection><location_1 latitude="39.355024" longitude="-76.660459"/></row><row _id="row-6hkq_9989_auir" _uuid="00000000-0000-0000-D6F5-39E6E7FE7937" _position="0" _address="https://data.baltimorecity.gov/resource/dz54-2aru/row-6hkq_9989_auir"><address>ERDMAN AVE &amp; N MACON ST</address><direction>E/B</direction><street>Erdman</street><crossstreet>Macon St</crossstreet><intersection>Erdman  &amp; Macon St</intersection><location_1 latitude="39.306805" longitude="-76.559317"/></row><row _id="row-xjnw_3ffu_uhfh" _uuid="00000000-0000-0000-39E2-75B5EAF34DCB" _position="0" _address="https://data.baltimorecity.gov/resource/dz54-2aru/row-xjnw_3ffu_uhfh"><address>WILKENS AVE &amp; DESOTO RD</address><direction>E/B</direction><street>Wilkens</street><crossstreet>DeSoto</crossstreet><intersection>Wilkens  &amp; DeSoto</intersection><location_1 latitude="39.274904" longitude="-76.668163"/></row><row _id="row-f84s_wnrp-jbyd" _uuid="00000000-0000-0000-A016-3DDCFC5A7A43" _position="0" _address="https://data.baltimorecity.gov/resource/dz54-2aru/row-f84s_wnrp-jbyd"><address>W NORTHERN PKWY &amp; FALLS RD</address><direction>W/B</direction><street>Northern Pkwy</street><crossstreet>Falls Road</crossstreet><intersection>Northern Pkwy  &amp; Falls Road</intersection><location_1 latitude="39.361413" longitude="-76.64622"/></row><row _id="row-tny3.4cik-2x7y" _uuid="00000000-0000-0000-876C-42E4C7D88B6F" _position="0" _address="https://data.baltimorecity.gov/resource/dz54-2aru/row-tny3.4cik-2x7y"><address>REISTERSTOWN RD &amp; MENLO DR</address><direction>N/B</direction><street>Reisterstown 
</street><crossstreet>Menlo Drive</crossstreet><intersection>Reisterstown 
 &amp; Menlo Drive</intersection><location_1 latitude="39.351985" longitude="-76.696376"/></row><row _id="row-dw2g_z2pj-cswg" _uuid="00000000-0000-0000-F9F8-BC77612140B7" _position="0" _address="https://data.baltimorecity.gov/resource/dz54-2aru/row-dw2g_z2pj-cswg"><address>PERRING PKWY &amp; E BELVEDERE AVE</address><direction>S/B</direction><street>Perring Pkwy
</street><crossstreet>Belvedere Ave</crossstreet><intersection>Perring Pkwy
  &amp; Belvedere Ave</intersection><location_1 latitude="39.354963" longitude="-76.575726"/></row><row _id="row-52za~an7r~gv6b" _uuid="00000000-0000-0000-1B04-77343732896B" _position="0" _address="https://data.baltimorecity.gov/resource/dz54-2aru/row-52za~an7r~gv6b"><address>WILKENS AVE &amp; PINE HEIGHTS AVE</address><direction>E/B</direction><street>Wilkens Ave</street><crossstreet>Pine Heights</crossstreet><intersection>Wilkens Ave &amp; Pine Heights</intersection><location_1 latitude="39.272025" longitude="-76.676961"/></row><row _id="row-72as.xcih-dd4t" _uuid="00000000-0000-0000-2797-38BA3FB2FB1C" _position="0" _address="https://data.baltimorecity.gov/resource/dz54-2aru/row-72as.xcih-dd4t"><address>N MONROE ST &amp; W LAFAYETTE AVE</address><direction>S/B</direction><street>Monroe
</street><crossstreet>Lafayette</crossstreet><intersection>Monroe
 &amp; Lafayette</intersection><location_1 latitude="39.298743" longitude="-76.647517"/></row><row _id="row-itt4_dfax.q865" _uuid="00000000-0000-0000-8DAF-CB2C6E0AC073" _position="0" _address="https://data.baltimorecity.gov/resource/dz54-2aru/row-itt4_dfax.q865"><address>HARFORD RD &amp; THE ALAMEDA</address><direction>N/B</direction><street>Harford 
</street><crossstreet>The Alameda</crossstreet><intersection>Harford 
 &amp; The Alameda</intersection><location_1 latitude="39.321207" longitude="-76.590771"/></row><row _id="row-xaem-yieu_zvrt" _uuid="00000000-0000-0000-DA50-E44E9144BF0E" _position="0" _address="https://data.baltimorecity.gov/resource/dz54-2aru/row-xaem-yieu_zvrt"><address>S CATON AVE &amp; BENSON AVE</address><direction>N/B</direction><street>Caton Ave</street><crossstreet>Benson Ave</crossstreet><intersection>Caton Ave &amp; Benson Ave</intersection><location_1 latitude="39.269378" longitude="-76.668819"/></row></row></response>